[{"id":1,"name":"유비케어","address":"서울 성동구 왕십리로 241","detail":"B1","region1":"서울특별시","region2":"성동구","lat":37.5571686563914,"lng":127.040104919932},{"id":2,"name":"SK에코플랜트-(구)SK건설","address":"서울 종로구 율곡로2길 19","detail":"32","region1":"서울특별시","region2":"종로구","lat":37.5745372167739,"lng":126.981018927344},{"id":3,"name":"KB국민은행","address":"서울특별시 영등포구 국제금융로8길","detail":"26  (여의도동)","region1":"서울특별시","region2":"영등포구","lat":37.5206966269734,"lng":126.928601178012},{"id":4,"name":"한국전력거래소","address":"전남 나주시 빛가람로 625","detail":"1층","region1":"전라남도","region2":"나주시","lat":35.0227024756082,"lng":126.781021833454},{"id":5,"name":"SK증권","address":"서울 영등포구 국제금융로8길 31","detail":"국제금융로2길 24","region1":"서울특별시","region2":"영등포구","lat":37.5197460148873,"lng":126.928066576601},{"id":6,"name":"하나은행","address":"서울 중구 을지로 35","detail":"을지로 1가","region1":"서울특별시","region2":"중구","lat":37.5664918220199,"lng":126.981865819602},{"id":7,"name":"하나증권","address":"서울 영등포구 의사당대로 82","detail":"","region1":"서울특별시","region2":"영등포구","lat":37.522682850023,"lng":126.921853372269},{"id":8,"name":"하나금융지주","address":"서울 중구 을지로 66","detail":"55  (을지로2가)","region1":"서울특별시","region2":"중구","lat":37.5651546444578,"lng":126.985010733916},{"id":9,"name":"하나금융연구소","address":"서울특별시 중구 을지로 35","detail":"","region1":"서울특별시","region2":"중구","lat":37.5664918220199,"lng":126.981865819602},{"id":10,"name":"IBK기업은행","address":"서울특별시 중구 을지로","detail":"79  (을지로2가)","region1":"서울특별시","region2":"중구","lat":37.5664820135766,"lng":126.994701347326},{"id":11,"name":"AIA생명보험","address":"","detail":"","region1":"","region2":"","lat":null,"lng":null},{"id":12,"name":"삼성생명보험","address":"서울 서초구 서초대로74길 11","detail":"","region1":"서울특별시","region2":"서초구","lat":37.4966333557707,"lng":127.026914460572},{"id":13,"name":"삼성화재 암뇌심 케어플러스 조기검진","address":"","detail":"","region1":"","region2":"","lat":null,"lng":null},{"id":14,"name":"어플라이드머티어리얼즈코리아","address":"경기 성남시 분당구 양현로 322","detail":"코리아디자인센터빌딩 5층","region1":"경기도","region2":"성남시 분당구","lat":37.4131967216789,"lng":127.123286467551},{"id":15,"name":"KB금융지주","address":"서울특별시 영등포구 국제금융로8길 26","detail":"남대문로 84 6층","region1":"서울특별시","region2":"영등포구","lat":37.5208677482908,"lng":126.927894008166},{"id":16,"name":"SK Inc.","address":"서울 종로구 종로 26","detail":"","region1":"서울특별시","region2":"종로구","lat":37.5696912777696,"lng":126.980303746598},{"id":17,"name":"넥슨코리아","address":"경기 성남시 분당구 판교로256번길 7","detail":"","region1":"경기도","region2":"성남시 분당구","lat":37.4020344323437,"lng":127.103466478297},{"id":18,"name":"DOW","address":"서울 강남구 영동대로 520","detail":"5층","region1":"서울특별시","region2":"강남구","lat":37.5136400498332,"lng":127.061137077786},{"id":19,"name":"SKE&S","address":"서울 종로구 종로 26","detail":"","region1":"서울특별시","region2":"종로구","lat":37.5696912777696,"lng":126.980303746598},{"id":20,"name":"평택에너지앤파워","address":"경기 평택시 오성면 서동대로 2427-177","detail":"1층","region1":"경기도","region2":"평택시","lat":null,"lng":null},{"id":21,"name":"나래에너지서비스","address":"경기 하남시 위례대로4길 29","detail":"","region1":"경기도","region2":"하남시","lat":37.4814568872287,"lng":127.152189438652},{"id":22,"name":"하나자산신탁","address":"서울 강남구 테헤란로 127","detail":"15층","region1":"서울특별시","region2":"강남구","lat":37.4996994615351,"lng":127.032045172427},{"id":23,"name":"네오플","address":"제주특별자치도 제주시 1100로 3198-13","detail":"","region1":"제주특별자치도","region2":"제주시","lat":33.4728747426119,"lng":126.485163467237},{"id":24,"name":"인천도시공사","address":"인천 남동구 인주대로914번길 42","detail":"1층","region1":"인천광역시","region2":"남동구","lat":37.4463764690905,"lng":126.737892244361},{"id":25,"name":"기초과학연구원","address":"대전 유성구 엑스포로 55","detail":"463-1 KT대덕2연구센터 기초과학연구원","region1":"대전광역시","region2":"유성구","lat":36.3803417196617,"lng":127.384398655551},{"id":26,"name":"SK브로드밴드","address":"서울 중구 퇴계로 24","detail":"남대문로 5가","region1":"서울특별시","region2":"중구","lat":37.5565876431218,"lng":126.975964441834},{"id":27,"name":"부산도시가스","address":"부산 해운대구 좌동순환로217번길 24","detail":"","region1":"부산광역시","region2":"해운대구","lat":35.17624804738,"lng":129.182286815586},{"id":28,"name":"넥슨스페이스","address":"경기 성남시 분당구 판교로256번길 7","detail":"","region1":"경기도","region2":"성남시 분당구","lat":37.4020344323437,"lng":127.103466478297},{"id":29,"name":"NXC","address":"제주특별자치도 제주시 은수길 17","detail":"","region1":"제주특별자치도","region2":"제주시","lat":33.4746751061717,"lng":126.486634567197},{"id":30,"name":"도쿄일렉트론코리아","address":"경기 화성시 장안면 장안공단6길 51","detail":"","region1":"경기도","region2":"화성시","lat":37.1119872593026,"lng":126.836407882974},{"id":31,"name":"GS칼텍스","address":"서울 강남구 논현로 508","detail":"","region1":"서울특별시","region2":"강남구","lat":37.5019949322814,"lng":127.037336400239},{"id":32,"name":"GS에너지","address":"서울 강남구 논현로 508","detail":"","region1":"서울특별시","region2":"강남구","lat":37.5019949322814,"lng":127.037336400239},{"id":33,"name":"원스토어","address":"경기 성남시 분당구 판교역로146번길 20","detail":"","region1":"경기도","region2":"성남시 분당구","lat":37.39279369494,"lng":127.112017130086},{"id":34,"name":"린데코리아","address":"경기 성남시 분당구 구미로 8","detail":"6층","region1":"경기도","region2":"성남시 분당구","lat":37.3376582431641,"lng":127.109744862813},{"id":35,"name":"GS리테일","address":"서울 강남구 논현로 508","detail":"","region1":"서울특별시","region2":"강남구","lat":37.5019949322814,"lng":127.037336400239},{"id":36,"name":"엔씨소프트","address":"경기 성남시 분당구 대왕판교로644번길 12","detail":"","region1":"경기도","region2":"성남시 분당구","lat":37.3993835359518,"lng":127.108594068139},{"id":37,"name":"엔미디어플랫폼","address":"서울 송파구 법원로 114","detail":"에이동 11층 1101~1110호","region1":"서울특별시","region2":"송파구","lat":37.4860552797801,"lng":127.12100938212},{"id":38,"name":"엔씨아이티에스","address":"경기 성남시 분당구 대왕판교로606번길 10","detail":"1동 4층","region1":"경기도","region2":"성남시 분당구","lat":37.395800819414,"lng":127.107592379777},{"id":39,"name":"삼일회계법인","address":"서울 용산구 한강대로 100","detail":"","region1":"서울특별시","region2":"용산구","lat":37.5287911785354,"lng":126.968673565462},{"id":40,"name":"PwC컨설팅","address":"서울 용산구 한강대로 92","detail":"","region1":"서울특별시","region2":"용산구","lat":37.5281759339792,"lng":126.96752270323},{"id":41,"name":"KB라이프생명보험","address":"서울 강남구 강남대로 298","detail":"","region1":"서울특별시","region2":"강남구","lat":37.4900614477694,"lng":127.032167924402},{"id":42,"name":"서울시설공단","address":"","detail":"","region1":"","region2":"","lat":null,"lng":null},{"id":43,"name":"KB증권","address":"서울특별시 영등포구 여의나루로 50","detail":"The-K 20층 인사부","region1":"서울특별시","region2":"영등포구","lat":37.5218052926703,"lng":126.925651244211},{"id":44,"name":"한국교직원공제회","address":"서울 영등포구 여의나루로 50","detail":"","region1":"서울특별시","region2":"영등포구","lat":37.5218052926703,"lng":126.925651244211},{"id":45,"name":"넥슨네트웍스","address":"제주특별자치도 제주시 도령로 33","detail":"3층","region1":"제주특별자치도","region2":"제주시","lat":33.4881182734268,"lng":126.482400070137},{"id":46,"name":"에너지인프라자산운용","address":"서울 영등포구 국제금융로 56","detail":"16층","region1":"서울특별시","region2":"영등포구","lat":37.5223156763043,"lng":126.929715483158},{"id":47,"name":"(주)헥톤씨앤씨","address":"서울특별시 구로구 디지털로32길 30","detail":"9층 911호(구로동,코오롱디지털타워빌란트)","region1":"서울특별시","region2":"구로구","lat":37.4833895421043,"lng":126.896519918476},{"id":48,"name":"(주)헥톤프로젝트","address":"서울특별시 영등포구 여의대로 108","detail":"31층(여의도동,파크원 타워2동)","region1":"서울특별시","region2":"영등포구","lat":37.5251913154781,"lng":126.929112756574},{"id":49,"name":"비브로스","address":"서울 영등포구 여의대로 108","detail":"파크원타워 2, 31층","region1":"서울특별시","region2":"영등포구","lat":37.5251913154781,"lng":126.929112756574},{"id":50,"name":"(재)행복에프앤씨 (자연이랑 분사무소)","address":"서울특별시 용산구 장문로 54","detail":"4층 (동빙고동, 셀빌딩)","region1":"서울특별시","region2":"용산구","lat":37.5266527650664,"lng":126.995769848869},{"id":51,"name":"주식회사 유팜몰","address":"서울특별시 구로구 디지털로33길 28 우림이비지센터1차","detail":"1404호","region1":"서울특별시","region2":"구로구","lat":37.4869823311106,"lng":126.895314838586},{"id":52,"name":"극지연구소_BizCenter","address":"인천광역시 서구 원적로 23 나은병원","detail":"ㅇ","region1":"인천광역시","region2":"서구","lat":37.4890590092269,"lng":126.679783225461},{"id":53,"name":"지씨셀","address":"경기도 용인시 기흥구 이현로30번길 107 (주)녹십자","detail":"지씨셀","region1":"경기도","region2":"용인시 기흥구","lat":37.3177715512725,"lng":127.100426562265},{"id":54,"name":"GC케어","address":"서울 성동구 왕십리로 241","detail":"1층 GC케어","region1":"서울특별시","region2":"성동구","lat":37.5571686563914,"lng":127.040104919932},{"id":55,"name":"주식회사 지씨지놈","address":"경기도 용인시 기흥구 이현로30번길 107 (주)녹십자","detail":"셀센터 3층, 지씨지놈","region1":"경기도","region2":"용인시 기흥구","lat":37.3177715512725,"lng":127.100426562265},{"id":56,"name":"GC녹십자의료재단","address":"경기도 용인시 기흥구 이현로30번길 107 (주)녹십자","detail":"GC녹십자의료재단","region1":"경기도","region2":"용인시 기흥구","lat":37.3177715512725,"lng":127.100426562265},{"id":57,"name":"주식회사녹십자엠에스","address":"경기도 용인시 기흥구 이현로30번길 107 (주)녹십자","detail":"녹십자엠에스","region1":"경기도","region2":"용인시 기흥구","lat":37.3177715512725,"lng":127.100426562265},{"id":58,"name":"녹십자홀딩스","address":"경기도 용인시 기흥구 이현로30번길 107 (주)녹십자","detail":"녹십자홀딩스","region1":"경기도","region2":"용인시 기흥구","lat":37.3177715512725,"lng":127.100426562265},{"id":59,"name":"목암생명과학연구소","address":"서울 서초구 강남대로41길 15-19","detail":"3층","region1":"서울특별시","region2":"서초구","lat":37.4864238189305,"lng":127.032130069418},{"id":60,"name":"녹십자","address":"경기도 용인시 기흥구 이현로30번길 107 (주)녹십자","detail":"","region1":"경기도","region2":"용인시 기흥구","lat":37.3177715512725,"lng":127.100426562265},{"id":61,"name":"녹십자웰빙","address":"서울특별시 성동구 왕십리로 241, 4층 녹십자웰빙","detail":"33층","region1":"서울특별시","region2":"성동구","lat":37.5571686563914,"lng":127.040104919932},{"id":62,"name":"GC Invacfarm","address":"전남 화순군 이양면 개기로 995","detail":"1층","region1":"전라남도","region2":"화순군","lat":34.9033176446414,"lng":127.067801754469},{"id":63,"name":"GC녹십자EM","address":"경기 성남시 분당구 구미로 8, 2층 GCEM (구미동, 분당M타워)","detail":"GC녹십자EM","region1":"경기도","region2":"성남시 분당구","lat":37.3376582431641,"lng":127.109744862813},{"id":64,"name":"그린벳","address":"경기 용인시 기흥구 이현로30번길 107","detail":"보정동,(주)녹십자","region1":"경기도","region2":"용인시 기흥구","lat":37.3177715512725,"lng":127.100426562265},{"id":65,"name":"지씨씨엘","address":"경기도 용인시 기흥구 이현로30번길 107 (주)녹십자","detail":"","region1":"경기도","region2":"용인시 기흥구","lat":37.3177715512725,"lng":127.100426562265},{"id":66,"name":"진스랩","address":"경기도 성남시 중원구 둔촌대로 388 크란츠 테크노","detail":"520호","region1":"경기도","region2":"성남시 중원구","lat":37.4326323289144,"lng":127.159291940243},{"id":67,"name":"GC녹십자아이메드","address":"서울 중구 을지로 170","detail":"9,10층","region1":"서울특별시","region2":"중구","lat":37.5661391831606,"lng":126.99732748195},{"id":68,"name":"KB부동산신탁","address":"서울특별시 강남구 테헤란로 129","detail":"강남N타워 25층 HR","region1":"서울특별시","region2":"강남구","lat":37.4999397623793,"lng":127.032366449372},{"id":69,"name":"SK아카데미","address":"","detail":"","region1":"","region2":"","lat":null,"lng":null},{"id":70,"name":"SK스토아","address":"서울 마포구 월드컵북로 402","detail":"","region1":"서울특별시","region2":"마포구","lat":37.580189157859,"lng":126.888935582716},{"id":71,"name":"SK인텔릭스","address":"서울 종로구 청계천로 85","detail":"18층(관철동, 삼일빌딩)","region1":"서울특별시","region2":"종로구","lat":37.5686313893591,"lng":126.987150409394},{"id":72,"name":"GS네트웍스","address":"경기 용인시 처인구 포곡읍 포곡로 100","detail":"","region1":"경기도","region2":"용인시 처인구","lat":37.2678144117306,"lng":127.217972506404},{"id":73,"name":"ASML코리아","address":"경기 화성시 삼성1로5길 25","detail":"","region1":"경기도","region2":"화성시","lat":37.2236365263729,"lng":127.071136651382},{"id":74,"name":"하나카드","address":"서울 중구 을지로 66","detail":"","region1":"서울특별시","region2":"중구","lat":37.5651546444578,"lng":126.985010733916},{"id":75,"name":"GS파워","address":"경기 안양시 동안구 부림로 100","detail":"","region1":"경기도","region2":"안양시 동안구","lat":null,"lng":null},{"id":76,"name":"엔진스튜디오","address":"경기 성남시 분당구 판교로256번길 25","detail":"B동 201호","region1":"경기도","region2":"성남시 분당구","lat":37.4004114447476,"lng":127.103132768749},{"id":77,"name":"새마을금고중앙회","address":"서울 강남구 봉은사로114길 20","detail":"","region1":"서울특별시","region2":"강남구","lat":37.5137518564116,"lng":127.06535867348},{"id":78,"name":"삼성전자서비스","address":"경기도 수원시 영통구 삼성로 290 삼성전자(주)CS아카데미","detail":"삼성전자서비스","region1":"경기도","region2":"수원시 영통구","lat":37.2655350063852,"lng":127.065714448803},{"id":79,"name":"LS오토모티브테크놀로지스","address":"경기 안양시 동안구 시민대로 260","detail":"20층","region1":"경기도","region2":"안양시 동안구","lat":37.3935078942772,"lng":126.959414289663},{"id":80,"name":"고양도시관리공사","address":"경기 고양시 일산서구 중앙로 1601","detail":"","region1":"경기도","region2":"고양시 일산서구","lat":37.6763870931783,"lng":126.742072909129},{"id":81,"name":"에스앤아이코퍼레이션","address":"서울 강서구 마곡중앙로 150","detail":"","region1":"서울특별시","region2":"강서구","lat":37.5669944211027,"lng":126.828520491813},{"id":82,"name":"우리은행","address":"서울 중구 소공로 51","detail":"","region1":"서울특별시","region2":"중구","lat":37.5594390741134,"lng":126.981750727877},{"id":83,"name":"삼양","address":"서울 종로구 종로33길 31","detail":"","region1":"서울특별시","region2":"종로구","lat":37.572610878924,"lng":127.001093731891},{"id":84,"name":"디앤오&디앤오씨엠","address":"서울 강서구 마곡중앙로 150","detail":"","region1":"서울특별시","region2":"강서구","lat":37.5669944211027,"lng":126.828520491813},{"id":85,"name":"우리금융지주","address":"서울 중구 소공로 51","detail":"","region1":"서울특별시","region2":"중구","lat":37.5594390741134,"lng":126.981750727877},{"id":86,"name":"우리카드","address":"서울 종로구 종로1길 50","detail":"A동","region1":"서울특별시","region2":"종로구","lat":37.5747244659804,"lng":126.979022440109},{"id":87,"name":"한국인삼공사","address":"대전 대덕구 벚꽃길 71","detail":"","region1":"대전광역시","region2":"대덕구","lat":36.4361251834888,"lng":127.428868808816},{"id":88,"name":"네오위즈","address":"","detail":"","region1":"","region2":"","lat":null,"lng":null},{"id":89,"name":"바텍 네트웍스","address":"경기 화성시 삼성1로2길 13","detail":"","region1":"경기도","region2":"화성시","lat":37.2209373202023,"lng":127.074976557003},{"id":90,"name":"KGC라이프앤진","address":"경기 과천시 과천대로7길 65","detail":"에이동 105~108호","region1":"경기도","region2":"과천시","lat":37.4166271377393,"lng":126.976105372839},{"id":91,"name":"SK스페셜티","address":"경북 영주시 가흥공단로 63","detail":"","region1":"경상북도","region2":"영주시","lat":36.8275912487579,"lng":128.591310969768},{"id":92,"name":"농협정보시스템","address":"서울 서초구 매헌로 24","detail":"2층","region1":"서울특별시","region2":"서초구","lat":37.4634172604038,"lng":127.03555907044},{"id":93,"name":"한국가스기술공사","address":"대전 유성구 대덕대로 1227","detail":"1층","region1":"대전광역시","region2":"유성구","lat":36.4363966603409,"lng":127.390239398419},{"id":94,"name":"에어프로덕츠코리아","address":"경기 용인시 기흥구 농서로46번길 3","detail":"","region1":"경기도","region2":"용인시 기흥구","lat":37.2251635816237,"lng":127.092346208939},{"id":95,"name":"SK에어플러스","address":"울산 남구 용잠로 255","detail":"","region1":"울산광역시","region2":"남구","lat":35.4963960353949,"lng":129.363948181832},{"id":96,"name":"야놀자","address":"서울 강남구 테헤란로108길 42","detail":"4~9층","region1":"서울특별시","region2":"강남구","lat":37.5068182254549,"lng":127.066242271781},{"id":97,"name":"큐니티","address":"서울 강남구 논현로 430","detail":"5층","region1":"서울특별시","region2":"강남구","lat":37.499001193592,"lng":127.038355416717},{"id":98,"name":"SPC GFS","address":"경기 성남시 중원구 둔촌대로457번길 13","detail":"","region1":"경기도","region2":"성남시 중원구","lat":37.4335885592472,"lng":127.168341488384},{"id":99,"name":"한국오라클","address":"서울 강남구 영동대로 517","detail":"15층,16층,36층","region1":"서울특별시","region2":"강남구","lat":37.5131101543222,"lng":127.059758068383},{"id":100,"name":"삼성전자판매","address":"경기 성남시 분당구 백현로101번길 30","detail":"10층","region1":"경기도","region2":"성남시 분당구","lat":37.3777606570893,"lng":127.113816841852},{"id":101,"name":"LG화학","address":"서울 영등포구 여의대로 128","detail":"","region1":"서울특별시","region2":"영등포구","lat":37.5279271045092,"lng":126.929241174348},{"id":102,"name":"SK트리켐","address":"세종특별자치시 연동면 명학산단로 110-5","detail":"","region1":"세종특별자치시","region2":"연동면","lat":36.5480753059014,"lng":127.329119752899},{"id":103,"name":"온세미컨덕터코리아(부천)","address":"경기도 부천시 평천로850번길 55","detail":"온세미컨덕터코리아","region1":"경기도","region2":"부천시","lat":37.5134145995391,"lng":126.786485588552},{"id":104,"name":"온세미컨덕터코리아(분당,양재)","address":"경기 성남시 분당구 백현로 93","detail":"9층","region1":"경기도","region2":"성남시 분당구","lat":37.3771176263594,"lng":127.111036153917},{"id":105,"name":"넥슨게임즈","address":"서울 강남구 남부순환로 2621","detail":"5층","region1":"서울특별시","region2":"강남구","lat":37.4852652574455,"lng":127.036620497399},{"id":106,"name":"시큐아이","address":"서울 종로구 종로 51","detail":"3,5,6층","region1":"서울특별시","region2":"종로구","lat":37.5707451369668,"lng":126.983611410428},{"id":107,"name":"넥슨코리아프라임멤버","address":"","detail":"","region1":"","region2":"","lat":null,"lng":null},{"id":108,"name":"LG에너지솔루션","address":"서울 영등포구 여의대로 108","detail":"타워 1","region1":"서울특별시","region2":"영등포구","lat":37.5251913154781,"lng":126.929112756574},{"id":109,"name":"신한은행","address":"서울 중구 세종대로9길 20","detail":"","region1":"서울특별시","region2":"중구","lat":37.5611194573103,"lng":126.974573564652},{"id":110,"name":"LG CNS","address":"서울 강서구 마곡중앙8로 71","detail":"","region1":"서울특별시","region2":"강서구","lat":37.5618584711387,"lng":126.834256830061},{"id":111,"name":"워커힐","address":"서울특별시 광진구 워커힐로 177 워커힐호텔","detail":"","region1":"서울특별시","region2":"광진구","lat":37.5586287308609,"lng":127.11170683593},{"id":112,"name":"신한금융지주","address":"서울특별시 중구 세종대로9길 20 대경빌딩 신한은행 본점","detail":"16층","region1":"서울특별시","region2":"중구","lat":37.5611194573103,"lng":126.974573564652},{"id":113,"name":"신한은행 퇴직자","address":"서울 중구 세종대로9길 20","detail":"","region1":"서울특별시","region2":"중구","lat":37.5611194573103,"lng":126.974573564652},{"id":114,"name":"포스코이앤씨","address":"","detail":"","region1":"","region2":"","lat":null,"lng":null},{"id":115,"name":"LG","address":"서울 영등포구 여의대로 128","detail":"","region1":"서울특별시","region2":"영등포구","lat":37.5279271045092,"lng":126.929241174348},{"id":116,"name":"하이케어솔루션","address":"서울 강서구 마곡중앙5로 18","detail":"KG빌딩","region1":"서울특별시","region2":"강서구","lat":37.5672462920678,"lng":126.825841587227},{"id":117,"name":"한국거래소","address":"부산광역시 남구 문현금융로 40 부산국제금융센터","detail":"50층","region1":"부산광역시","region2":"남구","lat":35.1464917263976,"lng":129.065854840531},{"id":118,"name":"한영회계법인","address":"서울 영등포구 여의공원로 111","detail":"","region1":"서울특별시","region2":"영등포구","lat":37.5297971715548,"lng":126.925780657778},{"id":119,"name":"쿠팡","address":"서울특별시 송파구 송파대로 570","detail":"18층","region1":"서울특별시","region2":"송파구","lat":37.5157873297768,"lng":127.099112358834},{"id":120,"name":"우리금융캐피탈","address":"대전광역시 서구 대덕대로 239","detail":"우리금융캐피탈","region1":"대전광역시","region2":"서구","lat":36.3542381114712,"lng":127.378919186435},{"id":121,"name":"AI연구원","address":"서울 영등포구 여의대로 128","detail":"동관 15층","region1":"서울특별시","region2":"영등포구","lat":37.5279271045092,"lng":126.929241174348},{"id":122,"name":"LX홀딩스","address":"서울 종로구 새문안로 58","detail":"","region1":"서울특별시","region2":"종로구","lat":37.5692689110408,"lng":126.971562204256},{"id":123,"name":"한국소방산업기술원","address":"경기도 용인시 기흥구 지삼로 331 한국소방산업기술원","detail":"한국소방산업기술원","region1":"경기도","region2":"용인시 기흥구","lat":37.2354340188646,"lng":127.145444874736},{"id":124,"name":"린데엔지니어링코리아","address":"경기 성남시 분당구 돌마로 48","detail":"","region1":"경기도","region2":"성남시 분당구","lat":37.3496914356906,"lng":127.107352509443},{"id":125,"name":"하이케어솔루션(매니저)","address":"서울특별시 금천구 디지털로10길 56 LG전자가산 A","detail":"가산빌딩A동 하이케어솔루션 주식회사","region1":"서울특별시","region2":"금천구","lat":37.4752456115817,"lng":126.889091631034},{"id":126,"name":"SC제일은행","address":"서울 종로구 종로 47","detail":"","region1":"서울특별시","region2":"종로구","lat":37.5711250081852,"lng":126.982438945074},{"id":127,"name":"안진회계법인","address":"서울 영등포구 국제금융로 10 (여의도동)","detail":"원아이에프씨빌딩 9층","region1":"서울특별시","region2":"영등포구","lat":37.5251775245928,"lng":126.924876706923},{"id":128,"name":"녹수","address":"충남 예산군 고덕면 삽교평야로 467","detail":"녹수고덕공장","region1":"충청남도","region2":"예산군","lat":36.7225255588619,"lng":126.725662854451},{"id":129,"name":"SGI서울보증","address":"서울 종로구 김상옥로 29","detail":"","region1":"서울특별시","region2":"종로구","lat":37.5736462157402,"lng":127.000602228753},{"id":130,"name":"코인원","address":"서울 영등포구 여의대로 108","detail":"파크원 타워 1동 45,46층","region1":"서울특별시","region2":"영등포구","lat":37.5251913154781,"lng":126.929112756574},{"id":131,"name":"투썸플레이스","address":"서울 중구 을지로 170 (을지로4가)","detail":"8층","region1":"서울특별시","region2":"중구","lat":37.5661391831606,"lng":126.99732748195},{"id":132,"name":"크래프톤","address":"서울 강남구 테헤란로 231","detail":"","region1":"서울특별시","region2":"강남구","lat":37.5028813541774,"lng":127.041356540268},{"id":133,"name":"하나금융티아이","address":"인천 서구 에코로 167","detail":"","region1":"인천광역시","region2":"서구","lat":37.5561010650993,"lng":126.628731548188},{"id":134,"name":"롯데웰푸드","address":"서울 영등포구 양평로19길 19","detail":"","region1":"서울특별시","region2":"영등포구","lat":37.5355752642301,"lng":126.894185892423},{"id":135,"name":"LG생활건강","address":"서울 종로구 새문안로 58","detail":"","region1":"서울특별시","region2":"종로구","lat":37.5692689110408,"lng":126.971562204256},{"id":136,"name":"LX세미콘","address":"대전 유성구 테크노2로 222","detail":"","region1":"대전광역시","region2":"유성구","lat":36.4211214760521,"lng":127.407722783238},{"id":137,"name":"당근마켓","address":"서울 서초구 강남대로 465","detail":"교보생명보험 서초사옥 10~12층","region1":"서울특별시","region2":"서초구","lat":37.5037560541254,"lng":127.024109539913},{"id":138,"name":"헤이딜러(피알앤디컴퍼니)","address":"서울 서초구 서초대로74길 14","detail":"8층 피알앤디컴퍼니","region1":"서울특별시","region2":"서초구","lat":37.4959645356639,"lng":127.026124445155},{"id":139,"name":"KT&G","address":"대전 대덕구 벚꽃길 71","detail":"","region1":"대전광역시","region2":"대덕구","lat":36.4361251834888,"lng":127.428868808816},{"id":140,"name":"신한카드","address":"서울 중구 을지로 100","detail":"에이동","region1":"서울특별시","region2":"중구","lat":37.5656490167105,"lng":126.988142568678},{"id":141,"name":"한국에너지공단","address":"울산 중구 종가로 323","detail":"우정동, 한국에너지공단","region1":"울산광역시","region2":"중구","lat":35.5654491965269,"lng":129.311905888733},{"id":142,"name":"우아한형제들","address":"서울 송파구 위례성대로 2","detail":"","region1":"서울특별시","region2":"송파구","lat":37.5169244928047,"lng":127.112766629856},{"id":143,"name":"LX판토스","address":"서울 종로구 새문안로 58","detail":"","region1":"서울특별시","region2":"종로구","lat":37.5692689110408,"lng":126.971562204256},{"id":144,"name":"우리투자증권","address":"서울 영등포구 의사당대로 96","detail":"19~22층","region1":"서울특별시","region2":"영등포구","lat":37.521547851978,"lng":126.92294256449},{"id":145,"name":"금양인터내셔날","address":"경기 부천시 오정구 신흥로511번길 80","detail":"A322호~A327호","region1":"경기도","region2":"부천시 오정구","lat":37.5297997555203,"lng":126.775646550568},{"id":146,"name":"우리금융저축은행","address":"충북 청주시 상당구 남사로 135","detail":"남문로 2가","region1":"충청북도","region2":"청주시 상당구","lat":36.6322370572646,"lng":127.490295839565},{"id":147,"name":"우아한청년들","address":"서울 송파구 올림픽로35다길 32","detail":"9층","region1":"서울특별시","region2":"송파구","lat":37.5150030196841,"lng":127.102059138933},{"id":148,"name":"LG경영연구원","address":"서울 영등포구 여의대로 128","detail":"","region1":"서울특별시","region2":"영등포구","lat":37.5279271045092,"lng":126.929241174348},{"id":149,"name":"케이뱅크","address":"서울 중구 을지로 170","detail":"동관 6층","region1":"서울특별시","region2":"중구","lat":37.5661391831606,"lng":126.99732748195},{"id":150,"name":"SK AX","address":"경기 성남시 분당구 성남대로343번길 9","detail":"","region1":"경기도","region2":"성남시 분당구","lat":37.3663641005928,"lng":127.106595520421},{"id":151,"name":"씨앤토트","address":"서울 서초구 방배천로 91","detail":"9층","region1":"서울특별시","region2":"서초구","lat":37.4847928376752,"lng":126.982598922569},{"id":152,"name":"신한자산신탁","address":"서울 강남구 영동대로 416","detail":"13층","region1":"서울특별시","region2":"강남구","lat":37.5065841136869,"lng":127.065326637295},{"id":153,"name":"한국이콜랩","address":"서울 송파구 법원로 135","detail":"8층(문정동, 대명타워)","region1":"서울특별시","region2":"송파구","lat":37.4869732072912,"lng":127.118359938519},{"id":154,"name":"SK시그넷","address":"전남 영광군 대마면 전기차로 49","detail":"","region1":"전라남도","region2":"영광군","lat":35.2792833784367,"lng":126.575053817838},{"id":155,"name":"대신파이낸셜그룹","address":"서울 중구 삼일대로 343 (저동 1가)","detail":"대신파이낸스센터","region1":"서울특별시","region2":"중구","lat":37.5651004556362,"lng":126.986959615068},{"id":156,"name":"LG헬로비전(협력사)","address":"서울 마포구 월드컵북로56길 19","detail":"6층","region1":"서울특별시","region2":"마포구","lat":37.582343255719,"lng":126.888365859866},{"id":157,"name":"우리프라이빗에퀴티자산운용","address":"서울 영등포구 여의대로 108","detail":"28층","region1":"서울특별시","region2":"영등포구","lat":37.5251913154781,"lng":126.929112756574},{"id":158,"name":"SK C&C 협력사","address":"경기 성남시 분당구 성남대로343번길 9","detail":"","region1":"경기도","region2":"성남시 분당구","lat":37.3663641005928,"lng":127.106595520421},{"id":159,"name":"일진전기","address":"경기 화성시 만년로 905-17","detail":"","region1":"경기도","region2":"화성시","lat":37.1895998936737,"lng":127.00414798159},{"id":160,"name":"포티투닷","address":"경기 성남시 수정구 창업로40번길 20","detail":"센터에이동","region1":"경기도","region2":"성남시 수정구","lat":37.4129809494322,"lng":127.094389493416},{"id":161,"name":"한국가스안전공사","address":"충북 음성군 맹동면 원중로 1390","detail":"1층","region1":"충청북도","region2":"음성군","lat":36.9081145407712,"lng":127.546043105844},{"id":162,"name":"오리온","address":"서울 용산구 백범로90다길 13","detail":"","region1":"서울특별시","region2":"용산구","lat":37.5356720739244,"lng":126.96951349304},{"id":163,"name":"하이브","address":"서울 용산구 한강대로 42","detail":"하이브","region1":"서울특별시","region2":"용산구","lat":37.5245456464592,"lng":126.964197674537},{"id":164,"name":"데브시스터즈","address":"서울 강남구 도산대로 327","detail":"","region1":"서울특별시","region2":"강남구","lat":37.5231196123278,"lng":127.037598626747},{"id":165,"name":"포스코퓨처엠","address":"경북 포항시 남구 신항로 110","detail":"","region1":"경상북도","region2":"포항시 남구","lat":36.0015690262965,"lng":129.416143090877},{"id":166,"name":"SK TNS","address":"서울 종로구 인사동7길 32","detail":"(관훈동, SK건설)","region1":"서울특별시","region2":"종로구","lat":37.5730661071474,"lng":126.984324627926},{"id":167,"name":"키움증권(주)","address":"서울 영등포구 의사당대로 96","detail":"","region1":"서울특별시","region2":"영등포구","lat":37.521547851978,"lng":126.92294256449},{"id":168,"name":"디엘그룹","address":"서울 종로구 통일로 134","detail":"24층","region1":"서울특별시","region2":"종로구","lat":37.5667350238449,"lng":126.966357200132},{"id":169,"name":"비로보틱스","address":"서울 송파구 충민로 10","detail":"5층 S01호","region1":"서울특별시","region2":"송파구","lat":37.4786173172251,"lng":127.119106729654},{"id":170,"name":"LG화학 기술연구원(대전)","address":"대전 유성구 문지로 188","detail":"","region1":"대전광역시","region2":"유성구","lat":36.386991267249,"lng":127.395333760472},{"id":171,"name":"LG화학 마곡R&D캠퍼스","address":"서울 강서구 마곡중앙10로 30","detail":"","region1":"서울특별시","region2":"강서구","lat":37.5634030851051,"lng":126.831230342853},{"id":172,"name":"LG화학 대산공장","address":"충남 서산시 대산읍 독곶1로 54","detail":"","region1":"충청남도","region2":"서산시","lat":37.0071000377087,"lng":126.38078775781},{"id":173,"name":"국민연금공단","address":"전북특별자치도 전주시 덕진구 기지로 180","detail":"국민연금공단","region1":"전라북도","region2":"전주시 덕진구","lat":35.8372979990082,"lng":127.072179366121},{"id":174,"name":"한국은행","address":"서울 중구 남대문로 39","detail":"남대문로 3가","region1":"서울특별시","region2":"중구","lat":37.5625151968969,"lng":126.97972353038},{"id":175,"name":"우리에프아이에스","address":"서울 마포구 월드컵북로60길 17","detail":"","region1":"서울특별시","region2":"마포구","lat":37.5833854182651,"lng":126.885992324027},{"id":176,"name":"SK오션플랜트","address":"경남 고성군 동해면 내산3길 51-1","detail":"","region1":"경상남도","region2":"고성군","lat":35.0523510867648,"lng":128.478572675351},{"id":177,"name":"케이카","address":"서울 영등포구 선유로43길 27","detail":"3층","region1":"서울특별시","region2":"영등포구","lat":37.5339731363734,"lng":126.892326310219},{"id":178,"name":"현대해상화재보험","address":"서울 종로구 세종대로 163","detail":"","region1":"서울특별시","region2":"종로구","lat":37.5709608283552,"lng":126.976166407848},{"id":179,"name":"주식회사 아이센스","address":"서울 서초구 반포대로28길 43","detail":"주식회사 아이센스","region1":"서울특별시","region2":"서초구","lat":37.4913646856421,"lng":127.010698629502},{"id":180,"name":"놀유니버스","address":"경기 성남시 수정구 금토로 70","detail":"금토동, 텐엑스타워","region1":"경기도","region2":"성남시 수정구","lat":37.405458006999,"lng":127.087068748544},{"id":181,"name":"롯데마트","address":"서울 송파구 올림픽로 269","detail":"","region1":"서울특별시","region2":"송파구","lat":37.5144273491608,"lng":127.100611434725},{"id":182,"name":"SBS미디어넷","address":"서울 마포구 상암산로 82","detail":"13층","region1":"서울특별시","region2":"마포구","lat":37.5797159011058,"lng":126.892773992481},{"id":183,"name":"롯데백화점","address":"서울 중구 남대문로 81","detail":"롯데백화점","region1":"서울특별시","region2":"중구","lat":37.5647299033135,"lng":126.981730421825},{"id":184,"name":"롯데케미칼(주)","address":"서울 송파구 올림픽로 300","detail":"","region1":"서울특별시","region2":"송파구","lat":37.5137129859207,"lng":127.104301829165},{"id":185,"name":"롯데지주","address":"서울 송파구 올림픽로 300","detail":"","region1":"서울특별시","region2":"송파구","lat":37.5137129859207,"lng":127.104301829165},{"id":186,"name":"롯데건설","address":"서울 서초구 잠원로14길 29","detail":"롯데건설","region1":"서울특별시","region2":"서초구","lat":37.5178537190552,"lng":127.015449233382},{"id":187,"name":"롯데칠성","address":"서울 서초구 서초대로70길 15","detail":"","region1":"서울특별시","region2":"서초구","lat":37.4950913160273,"lng":127.023822352468},{"id":188,"name":"우리자산신탁","address":"서울 강남구 테헤란로 301","detail":"13층","region1":"서울특별시","region2":"강남구","lat":37.5031256356337,"lng":127.043068810036},{"id":189,"name":"LX판토스 협력사","address":"서울 종로구 새문안로 58","detail":"","region1":"서울특별시","region2":"종로구","lat":37.5692689110408,"lng":126.971562204256},{"id":190,"name":"한전MCS","address":"전남 나주시 빛가람동 196-3","detail":"예가람타워 5층","region1":"전라남도","region2":"나주시","lat":35.0226592727772,"lng":126.785856097528},{"id":191,"name":"(주) 팜한농","address":"서울 영등포구 여의대로 24","detail":"5층, 6층","region1":"서울특별시","region2":"영등포구","lat":37.5221803249647,"lng":126.919916550827},{"id":192,"name":"한국산업기술진흥원","address":"","detail":"","region1":"","region2":"","lat":null,"lng":null},{"id":193,"name":"롯데 계열사","address":"서울 금천구 벚꽃로 104","detail":"금천롯데타워 11층 ~ 18층","region1":"서울특별시","region2":"금천구","lat":37.4645640823938,"lng":126.891069606151},{"id":194,"name":"한전원자력연료(주)","address":"대전 유성구 대덕대로989번길 242","detail":"","region1":"대전광역시","region2":"유성구","lat":36.426726247562,"lng":127.375124652151},{"id":195,"name":"현대제철(주)","address":"경기 성남시 분당구 분당내곡로 117","detail":"9층0","region1":"경기도","region2":"성남시 분당구","lat":37.3943014713942,"lng":127.112200514447},{"id":196,"name":"인천광역시청","address":"","detail":"","region1":"","region2":"","lat":null,"lng":null},{"id":197,"name":"한국국토정보공사","address":"","detail":"","region1":"","region2":"","lat":null,"lng":null},{"id":198,"name":"한국원자력연구원","address":"","detail":"","region1":"","region2":"","lat":null,"lng":null},{"id":199,"name":"라이온하트 스튜디오","address":"경기 성남시 분당구 분당내곡로 131","detail":"14층","region1":"경기도","region2":"성남시 분당구","lat":37.3954648629951,"lng":127.112113596734},{"id":200,"name":"(주)솔로몬텍","address":"서울 금천구 디지털로 178","detail":"에이동 717호~721호(가산동,가산퍼블릭)","region1":"서울특별시","region2":"금천구","lat":37.4764394057239,"lng":126.887331650246},{"id":201,"name":"아우모비오 코리아","address":"경기 성남시 분당구 황새울로312번길 26","detail":"3,4층","region1":"경기도","region2":"성남시 분당구","lat":37.383464567843,"lng":127.122669250089},{"id":202,"name":"금호건설(주)","address":"전남 나주시 시청길 4","detail":"","region1":"전라남도","region2":"나주시","lat":35.0164770792018,"lng":126.713331755199},{"id":203,"name":"코웨이(주)","address":"충남 공주시 유구읍 유구마곡사로 136-23","detail":"","region1":"충청남도","region2":"공주시","lat":36.5531545524675,"lng":126.967208917109},{"id":204,"name":"넷마블(주)","address":"서울 구로구 디지털로26길 38","detail":"지하3~지상 2층, 지상7~39층","region1":"서울특별시","region2":"구로구","lat":37.4798477003537,"lng":126.895318461208},{"id":205,"name":"이투스에듀","address":"서울 서초구 남부순환로 2547","detail":"","region1":"서울특별시","region2":"서초구","lat":37.4842508279321,"lng":127.029114011168},{"id":206,"name":"질병관리팀 패키지관리","address":"","detail":"","region1":"","region2":"","lat":null,"lng":null},{"id":207,"name":"한화손해보험(주) 고객 검진","address":"서울 영등포구 여의대로 56","detail":"","region1":"서울특별시","region2":"영등포구","lat":37.5240793528555,"lng":126.922872650933},{"id":208,"name":"삼성전자 한국총괄","address":"경기 수원시 영통구 삼성로 129","detail":"","region1":"경기도","region2":"수원시 영통구","lat":37.257643055151,"lng":127.053129481167},{"id":209,"name":"한국무역보험공사","address":"서울 종로구 종로 14","detail":"","region1":"서울특별시","region2":"종로구","lat":37.5698126628053,"lng":126.97886194878},{"id":210,"name":"롯데하이마트","address":"서울 강남구 삼성로 156","detail":"1층","region1":"서울특별시","region2":"강남구","lat":37.4942374564589,"lng":127.063830450933},{"id":211,"name":"SK플래닛(주)","address":"경기 성남시 분당구 판교로 264","detail":"","region1":"경기도","region2":"성남시 분당구","lat":37.4027408795499,"lng":127.103309667907},{"id":212,"name":"(주)농협사료","address":"서울 강동구 올림픽로 528","detail":"","region1":"서울특별시","region2":"강동구","lat":37.5294051174033,"lng":127.120399895825},{"id":213,"name":"SK해운","address":"서울특별시 중구 한강대로 416 서울스퀘어","detail":"21층 SK해운","region1":"서울특별시","region2":"중구","lat":37.555503632236,"lng":126.973751343837},{"id":214,"name":"공영기업","address":"대전 대덕구 벚꽃길 71","detail":"공영기업","region1":"대전광역시","region2":"대덕구","lat":36.4361251834888,"lng":127.428868808816},{"id":215,"name":"코리아크레딧뷰로","address":"서울 영등포구 국제금융로6길 15","detail":"","region1":"서울특별시","region2":"영등포구","lat":37.5220453719102,"lng":126.928508489507},{"id":216,"name":"한국수자원조사기술원","address":"경기 고양시 일산서구 킨텍스로 217-59","detail":"11층","region1":"경기도","region2":"고양시 일산서구","lat":37.664695446952,"lng":126.742064181796},{"id":217,"name":"담배인삼공제회","address":"대전 대덕구 벚꽃길 71","detail":"","region1":"대전광역시","region2":"대덕구","lat":36.4361251834888,"lng":127.428868808816},{"id":218,"name":"현대해상 하이플래너","address":"서울 종로구 세종대로 163","detail":"","region1":"서울특별시","region2":"종로구","lat":37.5709608283552,"lng":126.976166407848},{"id":219,"name":"비즈테크아이","address":"서울 마포구 매봉산로 75","detail":"12층","region1":"서울특별시","region2":"마포구","lat":37.5784518308273,"lng":126.892899428472},{"id":220,"name":"하나투어","address":"서울 종로구 인사동5길 41","detail":"","region1":"서울특별시","region2":"종로구","lat":37.5718525363527,"lng":126.984170366768},{"id":221,"name":"용인도시공사","address":"경기 용인시 처인구 금령로 47","detail":"","region1":"경기도","region2":"용인시 처인구","lat":37.2353761188025,"lng":127.20162256025},{"id":222,"name":"현대백화점그룹","address":"서울 강남구 테헤란로98길 12","detail":"","region1":"서울특별시","region2":"강남구","lat":37.5074139356357,"lng":127.062160877693},{"id":223,"name":"LG유플러스","address":"서울 용산구 한강대로 32","detail":"","region1":"서울특별시","region2":"용산구","lat":37.5237879629473,"lng":126.963508875989},{"id":224,"name":"파라다이스그룹","address":"서울 중구 퇴계로 299","detail":"","region1":"서울특별시","region2":"중구","lat":37.5641322423883,"lng":127.004665094613},{"id":225,"name":"하나생명","address":"서울 중구 을지로 66","detail":"하나생명 12층","region1":"서울특별시","region2":"중구","lat":37.5651546444578,"lng":126.985010733916},{"id":226,"name":"(주)에스엠코어","address":"서울 마포구 마포대로 20","detail":"14층","region1":"서울특별시","region2":"마포구","lat":37.5384252113104,"lng":126.94498558914},{"id":227,"name":"도루코","address":"서울 서초구 효령로70길 36-9","detail":"1층","region1":"서울특별시","region2":"서초구","lat":37.485288592002,"lng":127.024418383911},{"id":228,"name":"현대무벡스","address":"서울 종로구 율곡로 194","detail":"","region1":"서울특별시","region2":"종로구","lat":37.5753172899943,"lng":127.000722917059},{"id":229,"name":"IBK서비스","address":"서울 마포구 마포대로 20","detail":"다보빌딩 7층","region1":"서울특별시","region2":"마포구","lat":37.5384252113104,"lng":126.94498558914},{"id":230,"name":"신한펀드파트너스","address":"서울 영등포구 국제금융로2길 28","detail":"18,19,20층","region1":"서울특별시","region2":"영등포구","lat":37.5240806711634,"lng":126.924494536092},{"id":231,"name":"삼천리모터스","address":"경기 군포시 당정로27번길 11","detail":"","region1":"경기도","region2":"군포시","lat":37.3507564927416,"lng":126.954258374926},{"id":232,"name":"한국예탁결제원","address":"부산 남구 문현금융로 40","detail":"5,36,37,38,39,54층","region1":"부산광역시","region2":"남구","lat":35.1464917263976,"lng":129.065854840531},{"id":233,"name":"(주)대교","address":"서울 관악구 보라매로3길 23","detail":"대교타워","region1":"서울특별시","region2":"관악구","lat":37.491042929326,"lng":126.925536443215},{"id":234,"name":"케어링","address":"서울 강남구 강남대로 514","detail":"5층","region1":"서울특별시","region2":"강남구","lat":37.5081644040563,"lng":127.023200600165},{"id":235,"name":"하나캐피탈","address":"서울 강남구 테헤란로 127","detail":"하나금융그룹 강남사옥 20층","region1":"서울특별시","region2":"강남구","lat":37.4996994615351,"lng":127.032045172427},{"id":236,"name":"카카오페이","address":"경기 성남시 분당구 판교역로 166","detail":"비동 15층","region1":"경기도","region2":"성남시 분당구","lat":37.3952969470752,"lng":127.110449292622},{"id":237,"name":"하나저축은행","address":"서울 강남구 테헤란로 127","detail":"하나금융그룹 강남사옥 16,17층","region1":"서울특별시","region2":"강남구","lat":37.4996994615351,"lng":127.032045172427},{"id":238,"name":"하나에프앤아이","address":"경기 안양시 만안구 만안로 49","detail":"호정타워 1407호","region1":"경기도","region2":"안양시 만안구","lat":37.3876621753537,"lng":126.933583114151},{"id":239,"name":"지엘엔인터내셔널","address":"서울 강남구 테헤란로 217","detail":"오렌지플래닛 8층","region1":"서울특별시","region2":"강남구","lat":37.5021097120161,"lng":127.03984440325},{"id":240,"name":"유플러스홈서비스","address":"서울 마포구 월드컵북로 416","detail":"11층","region1":"서울특별시","region2":"마포구","lat":37.5805267876515,"lng":126.88772655104},{"id":241,"name":"NH-Amundi자산운용","address":"서울 영등포구 국제금융로8길 2","detail":"농협문화복지재단빌딩 10층","region1":"서울특별시","region2":"영등포구","lat":37.5220163808659,"lng":126.930048684376},{"id":242,"name":"카카오페이손해보험","address":"경기 성남시 분당구 판교역로 152","detail":"4층","region1":"경기도","region2":"성남시 분당구","lat":37.394245407468,"lng":127.110306812433},{"id":243,"name":"주식회사 카카오페이증권","address":"경기 성남시 분당구 판교역로 166","detail":"B동 8층","region1":"경기도","region2":"성남시 분당구","lat":37.3952969470752,"lng":127.110449292622},{"id":244,"name":"제주은행","address":"제주특별자치도 제주시 1100로 3351","detail":"","region1":"제주특별자치도","region2":"제주시","lat":33.4851167973788,"lng":126.479346909109},{"id":245,"name":"애커튼파트너스","address":"경기 성남시 분당구 성남대로343번길 9","detail":"","region1":"경기도","region2":"성남시 분당구","lat":37.3663641005928,"lng":127.106595520421},{"id":246,"name":"에이스냉동공조","address":"경기 화성시 장안면 수정로299번길 43","detail":"","region1":"경기도","region2":"화성시","lat":37.0912172380086,"lng":126.858093764127},{"id":247,"name":"롯데카드","address":"서울 종로구 새문안로 76","detail":"","region1":"서울특별시","region2":"종로구","lat":37.5697975427046,"lng":126.973177410043},{"id":248,"name":"한국전기안전공사","address":"전북특별자치도 완주군 이서면 안전로 111","detail":"","region1":"전라북도","region2":"완주군","lat":35.8348668592133,"lng":127.056132126937},{"id":249,"name":"한국다이요잉크","address":"","detail":"","region1":"","region2":"","lat":null,"lng":null},{"id":250,"name":"한국가스안전공사가스안전연구원","address":"","detail":"","region1":"","region2":"","lat":null,"lng":null},{"id":251,"name":"리뉴어스","address":"","detail":"","region1":"","region2":"","lat":null,"lng":null},{"id":252,"name":"KB펀드파트너스","address":"서울 영등포구 국제금융로8길 26","detail":"3층","region1":"서울특별시","region2":"영등포구","lat":37.5208677482908,"lng":126.927894008166},{"id":253,"name":"한국관광공사","address":"","detail":"","region1":"","region2":"","lat":null,"lng":null},{"id":254,"name":"아모레퍼시픽","address":"서울 용산구 한강대로 100","detail":"","region1":"서울특별시","region2":"용산구","lat":37.5287911785354,"lng":126.968673565462},{"id":255,"name":"KB온국민건강적금 가입자","address":"서울 강남구 테헤란로 334","detail":"5층","region1":"서울특별시","region2":"강남구","lat":37.5039452362982,"lng":127.048527611976},{"id":256,"name":"희성촉매","address":"경기 시흥시 소망공원로 91","detail":"507호","region1":"경기도","region2":"시흥시","lat":37.3415060834138,"lng":126.711499685527},{"id":257,"name":"미래에셋생명 M라이프","address":"","detail":"","region1":"","region2":"","lat":null,"lng":null},{"id":258,"name":"고용노동부","address":"세종특별자치시 한누리대로 422","detail":"","region1":"세종특별자치시","region2":"한누리대로","lat":36.5014003809725,"lng":127.261652306316},{"id":259,"name":"크레너","address":"서울 강남구 압구정로36길 18","detail":"신구빌딩 2층","region1":"서울특별시","region2":"강남구","lat":37.527365078389,"lng":127.031305700862},{"id":260,"name":"LG유플러스 고객센터","address":"서울 금천구 금하로 597","detail":"LG유플러스 고객센터빌딩 10층","region1":"서울특별시","region2":"금천구","lat":37.453970357561,"lng":126.897635624193},{"id":261,"name":"GC케어_CRM","address":"","detail":"","region1":"","region2":"","lat":null,"lng":null},{"id":262,"name":"서울특별시청","address":"서울 중구 세종대로 110","detail":"","region1":"서울특별시","region2":"중구","lat":37.566370776634,"lng":126.977918351844},{"id":263,"name":"NH농협은행","address":"서울 중구 통일로 120","detail":"NH농협은행","region1":"서울특별시","region2":"중구","lat":37.5657854449863,"lng":126.967576559444},{"id":264,"name":"미래에셋증권","address":"서울 중구 을지로5길 26","detail":"","region1":"서울특별시","region2":"중구","lat":37.5673399451193,"lng":126.985208946848},{"id":265,"name":"인천공항운영서비스","address":"인천 중구 공항로424번길 84","detail":"7층","region1":"인천광역시","region2":"중구","lat":37.4390779767265,"lng":126.463836156937},{"id":266,"name":"씨엔알리서치","address":"서울 강남구 역삼로 412","detail":"","region1":"서울특별시","region2":"강남구","lat":37.5007011535322,"lng":127.052353518419},{"id":267,"name":"경기아트센터","address":"경기 수원시 팔달구 효원로307번길 20","detail":"","region1":"경기도","region2":"수원시 팔달구","lat":37.2615833279889,"lng":127.037569686512},{"id":268,"name":"LS엠트론(주)","address":"경기 안양시 동안구 엘에스로 127","detail":"LS타워 11층","region1":"경기도","region2":"안양시 동안구","lat":37.3724051471608,"lng":126.947202895332},{"id":269,"name":"자이씨앤에이","address":"서울 강서구 마곡중앙로 105-7","detail":"디동 9,10층","region1":"서울특별시","region2":"강서구","lat":37.5629234842805,"lng":126.826076887806},{"id":270,"name":"(주)버킷플레이스","address":"서울 서초구 서초대로74길 4","detail":"25,27층","region1":"서울특별시","region2":"서초구","lat":37.4967437284397,"lng":127.025703589132},{"id":271,"name":"삼구에프에스","address":"서울 구로구 디지털로31길 38-21","detail":"905호","region1":"서울특별시","region2":"구로구","lat":37.4865238199567,"lng":126.893713287059},{"id":272,"name":"신한투자증권","address":"서울 영등포구 의사당대로 96","detail":"","region1":"서울특별시","region2":"영등포구","lat":37.521547851978,"lng":126.92294256449},{"id":273,"name":"산일전기","address":"경기 안산시 단원구 시화벤처로 481","detail":"산일전기","region1":"경기도","region2":"안산시 단원구","lat":37.3089914335426,"lng":126.726878818476},{"id":274,"name":"경보제약","address":"충남 아산시 실옥로 174","detail":"","region1":"충청남도","region2":"아산시","lat":36.7964243344417,"lng":126.981854354672},{"id":275,"name":"(주)우리홈쇼핑","address":"서울 영등포구 양평로21길 10","detail":"","region1":"서울특별시","region2":"영등포구","lat":37.5374231294559,"lng":126.892791811107},{"id":276,"name":"카카오뱅크","address":"경기 성남시 분당구 분당내곡로 131","detail":"11층","region1":"경기도","region2":"성남시 분당구","lat":37.3954648629951,"lng":127.112113596734},{"id":277,"name":"미래에셋캐피탈","address":"서울 중구 을지로5길 26","detail":"36층","region1":"서울특별시","region2":"중구","lat":37.5673399451193,"lng":126.985208946848},{"id":278,"name":"아마존","address":"서울 강남구 테헤란로 231","detail":"12층 EAST(역삼동, 센터필드)","region1":"서울특별시","region2":"강남구","lat":37.5028813541774,"lng":127.041356540268},{"id":279,"name":"미래에셋(공통)","address":"","detail":"","region1":"","region2":"","lat":null,"lng":null},{"id":280,"name":"콩스튜디오코리아","address":"","detail":"","region1":"","region2":"","lat":null,"lng":null},{"id":281,"name":"하이텔레서비스","address":"서울 강서구 마곡중앙5로 18","detail":"3,4,5층(마곡동, 케이지 스퀘어)","region1":"서울특별시","region2":"강서구","lat":37.5672462920678,"lng":126.825841587227},{"id":282,"name":"농협중앙회","address":"서울 중구 새문안로 16","detail":"","region1":"서울특별시","region2":"중구","lat":37.5664991184072,"lng":126.968555570622},{"id":283,"name":"농협경제지주","address":"서울 중구 새문안로 16","detail":"충정로 1가","region1":"서울특별시","region2":"중구","lat":37.5664991184072,"lng":126.968555570622},{"id":284,"name":"농협하나로유통","address":"서울 마포구 신촌로 66","detail":"9층","region1":"서울특별시","region2":"마포구","lat":37.5560711117214,"lng":126.933150659768},{"id":285,"name":"농협양곡","address":"서울 서초구 매헌로 24","detail":"1층","region1":"서울특별시","region2":"서초구","lat":37.4634172604038,"lng":127.03555907044},{"id":286,"name":"NH농협금융지주","address":"서울 중구 새문안로 16","detail":"","region1":"서울특별시","region2":"중구","lat":37.5664991184072,"lng":126.968555570622},{"id":287,"name":"NH농협생명","address":"서울 서대문구 통일로 87","detail":"동관","region1":"서울특별시","region2":"서대문구","lat":37.5627767312819,"lng":126.968512766878},{"id":288,"name":"NH농협손해보험","address":"서울 서대문구 충정로 60","detail":"","region1":"서울특별시","region2":"서대문구","lat":37.5638625904566,"lng":126.966154870127},{"id":289,"name":"세컨드다이브","address":"","detail":"","region1":"","region2":"","lat":null,"lng":null},{"id":290,"name":"(주)카카오엔터테인먼트","address":"","detail":"","region1":"","region2":"","lat":null,"lng":null},{"id":291,"name":"국민연금공단 정년퇴직자 및 협력업체","address":"","detail":"","region1":"","region2":"","lat":null,"lng":null},{"id":292,"name":"데상트코리아","address":"","detail":"","region1":"","region2":"","lat":null,"lng":null},{"id":293,"name":"극지연구소","address":"인천 연수구 송도미래로 26","detail":"1층","region1":"인천광역시","region2":"연수구","lat":37.3680575179689,"lng":126.646653702662},{"id":294,"name":"롯데이노베이트","address":"서울 금천구 가산디지털2로 179","detail":"","region1":"서울특별시","region2":"금천구","lat":37.4835784864787,"lng":126.876367551986},{"id":295,"name":"서울주택도시개발공사","address":"서울 강남구 개포로 621","detail":"","region1":"서울특별시","region2":"강남구","lat":37.4941313928275,"lng":127.078783141187},{"id":296,"name":"DB플래티넘FC","address":"서울 강남구 테헤란로 432","detail":"","region1":"서울특별시","region2":"강남구","lat":37.5058806405734,"lng":127.05481058047},{"id":297,"name":"아이아이컴바인드","address":"서울 마포구 어울마당로5길 41","detail":"","region1":"서울특별시","region2":"마포구","lat":37.5495588457393,"lng":126.91834008373},{"id":298,"name":"엘브이이코리아","address":"서울 마포구 동교로23길 14","detail":"2층","region1":"서울특별시","region2":"마포구","lat":37.5568493559007,"lng":126.920849150653},{"id":299,"name":"미래에셋생명","address":"서울 영등포구 국제금융로 56","detail":"","region1":"서울특별시","region2":"영등포구","lat":37.5223156763043,"lng":126.929715483158},{"id":300,"name":"미래에셋컨설팅","address":"광주 서구 시청로 81","detail":"1층","region1":"광주광역시","region2":"서구","lat":35.1559133984759,"lng":126.850939104325},{"id":301,"name":"미래에셋금융서비스","address":"서울 중구 소월로2길 30","detail":"6층","region1":"서울특별시","region2":"중구","lat":37.5539946799726,"lng":126.975612746457},{"id":302,"name":"휴젤","address":"강원특별자치도 춘천시 동내면 거두단지1길 23","detail":"휴젤","region1":"강원특별자치도","region2":"춘천시","lat":37.8683842023065,"lng":127.778798992379},{"id":303,"name":"미래에셋자산운용","address":"서울 중구 을지로5길 26","detail":"센터 1, 26층","region1":"서울특별시","region2":"중구","lat":37.5673399451193,"lng":126.985208946848},{"id":304,"name":"아쿠쉬네트코리아","address":"서울 강남구 선릉로 651","detail":"","region1":"서울특별시","region2":"강남구","lat":37.5146417886575,"lng":127.041923836816},{"id":305,"name":"수협","address":"서울 송파구 오금로 62","detail":"","region1":"서울특별시","region2":"송파구","lat":37.5163817940367,"lng":127.105478877949},{"id":306,"name":"네오스라이트","address":"경기 화성시 매송면 야목길 6","detail":"","region1":"경기도","region2":"화성시","lat":37.2668416276883,"lng":126.87812694663},{"id":307,"name":"롯데캐피탈","address":"서울 강남구 테헤란로 142","detail":"7층","region1":"서울특별시","region2":"강남구","lat":37.4997440471512,"lng":127.034954751198},{"id":308,"name":"하나투어 계열사","address":"서울 종로구 삼봉로 94","detail":"94빌딩 4층","region1":"서울특별시","region2":"종로구","lat":37.5718380251248,"lng":126.982234115393},{"id":309,"name":"엔젤로보틱스","address":"서울 마포구 서강대길 3","detail":"2층,5층","region1":"서울특별시","region2":"마포구","lat":37.5494698710378,"lng":126.939344606101},{"id":310,"name":"롯데GRS","address":"서울 금천구 벚꽃로 104","detail":"","region1":"서울특별시","region2":"금천구","lat":37.4645640823938,"lng":126.891069606151},{"id":311,"name":"홈앤서비스","address":"서울 중구 퇴계로 10","detail":"16층","region1":"서울특별시","region2":"중구","lat":37.5562754669305,"lng":126.974344108057},{"id":312,"name":"코리아세븐","address":"서울 강동구 천호대로 1077","detail":"16층, 17층, 18층","region1":"서울특별시","region2":"강동구","lat":37.5372566499573,"lng":127.131437557377},{"id":313,"name":"롯데멤버스","address":"서울 중구 통일로2길 16","detail":"14층","region1":"서울특별시","region2":"중구","lat":37.5607570931577,"lng":126.971491192729},{"id":314,"name":"엔에이치투자증권","address":"서울 영등포구 여의대로 108(여의도동, 파크원)","detail":"","region1":"서울특별시","region2":"영등포구","lat":37.5251913154781,"lng":126.929112756574},{"id":315,"name":"롯데물산","address":"서울 송파구 올림픽로 300","detail":"롯데물산","region1":"서울특별시","region2":"송파구","lat":37.5137129859207,"lng":127.104301829165},{"id":316,"name":"(주)한샘","address":"경기 안산시 단원구 번영2로 144","detail":"","region1":"경기도","region2":"안산시 단원구","lat":37.3176016158546,"lng":126.748042872219},{"id":317,"name":"칼리버스","address":"서울 강남구 선릉로146길 27-7","detail":"칼리버스","region1":"서울특별시","region2":"강남구","lat":37.5223610123208,"lng":127.04201231944},{"id":318,"name":"케이티에스테이트","address":"서울 강남구 테헤란로 422","detail":"17층","region1":"서울특별시","region2":"강남구","lat":37.5053202922409,"lng":127.052862629563},{"id":319,"name":"삼성증권","address":"서울 서초구 서초대로74길 11","detail":"","region1":"서울특별시","region2":"서초구","lat":37.4966333557707,"lng":127.026914460572},{"id":320,"name":"동아쏘시오그룹","address":"서울 동대문구 천호대로 64","detail":"","region1":"서울특별시","region2":"동대문구","lat":37.5736138630578,"lng":127.030277829499},{"id":321,"name":"롯데케미칼 첨단소재","address":"서울 송파구 올림픽로 300","detail":"","region1":"서울특별시","region2":"송파구","lat":37.5137129859207,"lng":127.104301829165},{"id":322,"name":"SPC삼립","address":"경기 시흥시 공단1대로 101","detail":"","region1":"경기도","region2":"시흥시","lat":37.3440883053902,"lng":126.716142593537},{"id":323,"name":"롯데미래전략연구소","address":"서울 송파구 올림픽로 300","detail":"롯데월드타워","region1":"서울특별시","region2":"송파구","lat":37.5137129859207,"lng":127.104301829165},{"id":324,"name":"에이직랜드","address":"경기 수원시 영통구 대학4로 25","detail":"에이직랜드빌딩","region1":"경기도","region2":"수원시 영통구","lat":37.299557968597,"lng":127.04767098425},{"id":325,"name":"미래에셋박현주재단","address":"서울 중구 을지로5길 26","detail":"","region1":"서울특별시","region2":"중구","lat":37.5673399451193,"lng":126.985208946848},{"id":326,"name":"미래에셋벤처투자(주)","address":"경기 성남시 분당구 판교역로241번길 20","detail":"","region1":"경기도","region2":"성남시 분당구","lat":37.4027622177904,"lng":127.107372944477},{"id":327,"name":"수정링크","address":"","detail":"","region1":"","region2":"","lat":null,"lng":null},{"id":328,"name":"SK에코플랜트 머티리얼즈","address":"서울 종로구 종로 33","detail":"타워 1 22층","region1":"서울특별시","region2":"종로구","lat":37.5709617749066,"lng":126.981437983842},{"id":329,"name":"샌드박스네트워크","address":"서울 용산구 서빙고로 17","detail":"30층","region1":"서울특별시","region2":"용산구","lat":37.5269056148241,"lng":126.966566172294},{"id":330,"name":"한국아스텔라스제약","address":"서울 강남구 테헤란로 521","detail":"7층","region1":"서울특별시","region2":"강남구","lat":37.5091916919873,"lng":127.06080691987},{"id":331,"name":"한국주택금융공사","address":"부산 남구 문현금융로 40","detail":"7층","region1":"부산광역시","region2":"남구","lat":35.1464917263976,"lng":129.065854840531},{"id":332,"name":"SK네트웍스","address":"경기 수원시 팔달구 매산로52번길 4","detail":"","region1":"경기도","region2":"수원시 팔달구","lat":37.2685216163963,"lng":127.006872670942},{"id":333,"name":"윈체","address":"충북 충주시 산척면 세고개로 242","detail":"윈체","region1":"충청북도","region2":"충주시","lat":37.0909768087818,"lng":127.955806055275},{"id":334,"name":"TYM","address":"서울 용산구 장문로 52","detail":"티와이엠","region1":"서울특별시","region2":"용산구","lat":37.5267399726209,"lng":126.99551394394},{"id":335,"name":"롯데칠성 대리점","address":"","detail":"","region1":"","region2":"","lat":null,"lng":null},{"id":336,"name":"공차코리아","address":"서울 종로구 종로 47","detail":"7층","region1":"서울특별시","region2":"종로구","lat":37.5711250081852,"lng":126.982438945074},{"id":337,"name":"호텔롯데 롯데리조트","address":"서울 중구 소공로 70","detail":"B동 21층","region1":"서울특별시","region2":"중구","lat":37.5615987374058,"lng":126.982169090151},{"id":338,"name":"호텔롯데 CL","address":"서울 마포구 마포대로 109","detail":"","region1":"서울특별시","region2":"마포구","lat":37.5450686146253,"lng":126.950847479316},{"id":339,"name":"나이스평가정보 삼성카드 헬스케어서비스","address":"","detail":"","region1":"","region2":"","lat":null,"lng":null},{"id":340,"name":"MG캐피탈","address":"서울 강남구 도산대로 306","detail":"논현동 91-3","region1":"서울특별시","region2":"강남구","lat":37.5214438634783,"lng":127.034870641316},{"id":341,"name":"한국에스지에스","address":"서울 용산구 한강대로 257","detail":"2층","region1":"서울특별시","region2":"용산구","lat":37.5412451461454,"lng":126.972556141214},{"id":342,"name":"애커튼테크놀로지서비스","address":"경기 성남시 분당구 판교로255번길 38","detail":"SK판교캠퍼스 6층 일부호","region1":"경기도","region2":"성남시 분당구","lat":37.4058847853754,"lng":127.099877768445},{"id":343,"name":"여주도시공사","address":"경기 여주시 점동면 청안로 132","detail":"","region1":"경기도","region2":"여주시","lat":37.2060149012662,"lng":127.66229768768},{"id":344,"name":"롯데슈퍼","address":"서울 송파구 올림픽로 269","detail":"6,7층","region1":"서울특별시","region2":"송파구","lat":37.5144273491608,"lng":127.100611434725},{"id":345,"name":"롯데엠시시","address":"충남 서산시 대산읍 독곶1로 82","detail":"1층","region1":"충청남도","region2":"서산시","lat":null,"lng":null},{"id":346,"name":"메디케어 구독회원 (링크)","address":"","detail":"","region1":"","region2":"","lat":null,"lng":null},{"id":347,"name":"GS리테일홈쇼핑","address":"서울 영등포구 선유로 75","detail":"선유로82(문래동6가, GS강서타워)","region1":"서울특별시","region2":"영등포구","lat":37.5208101512286,"lng":126.889034290669},{"id":348,"name":"한샘서비스 협력사","address":"","detail":"","region1":"","region2":"","lat":null,"lng":null},{"id":349,"name":"(주)사람인","address":"서울 강서구 공항대로 165","detail":"C동 11층","region1":"서울특별시","region2":"강서구","lat":37.5608751008131,"lng":126.824695969186},{"id":350,"name":"한국우편사업진흥원","address":"서울 영등포구 영중로 83","detail":"","region1":"서울특별시","region2":"영등포구","lat":37.5237515374083,"lng":126.904910932663},{"id":351,"name":"메디케어 구독회원 (비즈)","address":"","detail":"","region1":"","region2":"","lat":null,"lng":null},{"id":352,"name":"스타필드수원","address":"경기 수원시 장안구 수성로 175","detail":"스타필드수원","region1":"경기도","region2":"수원시 장안구","lat":37.2874453391147,"lng":126.991574559571},{"id":353,"name":"트리온넷","address":"서울 금천구 가산디지털1로 233","detail":"에이스하이엔드타워9차 1011호","region1":"서울특별시","region2":"금천구","lat":37.4857830768497,"lng":126.878280649919},{"id":354,"name":"이브이시스","address":"경기 고양시 덕양구 삼송로 12","detail":"9층","region1":"경기도","region2":"고양시 덕양구","lat":37.6496166416452,"lng":126.875530670502},{"id":355,"name":"강원랜드","address":"강원특별자치도 정선군 사북읍 하이원길 265","detail":"","region1":"강원특별자치도","region2":"정선군","lat":37.2120533263011,"lng":128.82171779524},{"id":356,"name":"아이센스","address":"","detail":"","region1":"","region2":"","lat":null,"lng":null},{"id":357,"name":"새만금개발공사","address":"전북특별자치도 군산시 새만금북로 466","detail":"새만금개발공사","region1":"전라북도","region2":"군산시","lat":35.9470077426119,"lng":126.584957333729},{"id":358,"name":"스타벅스코리아","address":"","detail":"","region1":"","region2":"","lat":null,"lng":null},{"id":359,"name":"교보라플","address":"","detail":"","region1":"","region2":"","lat":null,"lng":null},{"id":360,"name":"포스코인터내셔널","address":"서울 강남구 테헤란로 440 (대치동, 포스코센터 서관)","detail":"16층","region1":"서울특별시","region2":"강남구","lat":37.5058149679709,"lng":127.056130956028},{"id":361,"name":"메디케어(3대질병) 구독회원","address":"","detail":"","region1":"","region2":"","lat":null,"lng":null},{"id":362,"name":"나이키코리아","address":"서울 강남구 테헤란로 152","detail":"나이키코리아","region1":"서울특별시","region2":"강남구","lat":37.5000242405515,"lng":127.036508620542},{"id":363,"name":"새마을금고자산관리회사","address":"서울 마포구 양화로 106","detail":"2층","region1":"서울특별시","region2":"마포구","lat":37.553096101878,"lng":126.919298054295},{"id":364,"name":"헬스케어라이트(암)","address":"","detail":"","region1":"","region2":"","lat":null,"lng":null},{"id":365,"name":"비즈케어플러스_BIZ","address":"","detail":"","region1":"","region2":"","lat":null,"lng":null},{"id":366,"name":"비즈케어플러스","address":"","detail":"","region1":"","region2":"","lat":null,"lng":null},{"id":367,"name":"경기도가정밖청소년지원센터","address":"경기 수원시 팔달구 팔달로 31","detail":"서영아너시티 OWN 403호","region1":"경기도","region2":"수원시 팔달구","lat":37.2717690758715,"lng":127.000771304667},{"id":368,"name":"이니바이오","address":"","detail":"","region1":"","region2":"","lat":null,"lng":null},{"id":369,"name":"헬스케어라이트(암)_Link","address":"","detail":"","region1":"","region2":"","lat":null,"lng":null},{"id":370,"name":"(주)이브릿지","address":"서울 중구 남대문로 113","detail":"DB다동빌딩 3층","region1":"서울특별시","region2":"중구","lat":37.5673021513437,"lng":126.982285562848},{"id":371,"name":"라이나생명","address":"서울 종로구 삼봉로 48","detail":"","region1":"서울특별시","region2":"종로구","lat":37.5720922855339,"lng":126.979979592877},{"id":372,"name":"T멤버십","address":"","detail":"","region1":"","region2":"","lat":null,"lng":null},{"id":373,"name":"비씨카드 메디케어","address":"","detail":"","region1":"","region2":"","lat":null,"lng":null},{"id":374,"name":"비씨카드 메디케어(비즈)","address":"","detail":"","region1":"","region2":"","lat":null,"lng":null},{"id":375,"name":"에스엘","address":"경북 경산시 진량읍 공단6로 77","detail":"","region1":"경상북도","region2":"경산시","lat":35.8678560611314,"lng":128.82258048164},{"id":376,"name":"SBS","address":"","detail":"","region1":"","region2":"","lat":null,"lng":null},{"id":377,"name":"한국승강기안전공단","address":"","detail":"","region1":"","region2":"","lat":null,"lng":null},{"id":378,"name":"삼성생명","address":"","detail":"","region1":"","region2":"","lat":null,"lng":null},{"id":379,"name":"DB손해보험(Manager)","address":"","detail":"","region1":"","region2":"","lat":null,"lng":null},{"id":380,"name":"경기문화재단","address":"경기 수원시 팔달구 인계로 178","detail":"","region1":"경기도","region2":"수원시 팔달구","lat":37.2657751924793,"lng":127.036881697022},{"id":381,"name":"비즈링크고객사(데모)","address":"","detail":"","region1":"","region2":"","lat":null,"lng":null},{"id":382,"name":"알츠온 고객검진","address":"경기 성남시 중원구 둔촌대로457번길 27","detail":", 5층(상대원동, 성남우림라이온스밸리)","region1":"경기도","region2":"성남시 중원구","lat":37.4338827515723,"lng":127.170158799517},{"id":383,"name":"더벨","address":"서울 종로구 청계천로 41","detail":"영풍빌딩4,5,6층","region1":"서울특별시","region2":"종로구","lat":37.5696679696981,"lng":126.982179278549},{"id":384,"name":"NH농협은행 프레스티지","address":"","detail":"","region1":"","region2":"","lat":null,"lng":null},{"id":385,"name":"신한라이프","address":"","detail":"","region1":"","region2":"","lat":null,"lng":null},{"id":386,"name":"화물복지재단","address":"","detail":"","region1":"","region2":"","lat":null,"lng":null},{"id":387,"name":"한국투자금융그룹","address":"","detail":"","region1":"","region2":"","lat":null,"lng":null},{"id":388,"name":"엔에이치투자증권 패밀리오피스","address":"","detail":"","region1":"","region2":"","lat":null,"lng":null},{"id":389,"name":"(주)대동","address":"대구 달성군 논공읍 논공중앙로34길 35","detail":"(주)대동","region1":"대구광역시","region2":"달성군","lat":35.7306711080479,"lng":128.457093515866},{"id":390,"name":"한국철도기술연구원","address":"경기 의왕시 철도박물관로 176","detail":"한국철도기술연구원","region1":"경기도","region2":"의왕시","lat":37.3122619041333,"lng":126.952014496698},{"id":391,"name":"대보유통","address":"","detail":"","region1":"","region2":"","lat":null,"lng":null},{"id":392,"name":"BMW코리아","address":"","detail":"","region1":"","region2":"","lat":null,"lng":null},{"id":393,"name":"애플코리아","address":"서울 강남구 영동대로 517","detail":"","region1":"서울특별시","region2":"강남구","lat":37.5131101543222,"lng":127.059758068383},{"id":394,"name":"인스파이어","address":"인천 중구 공항문화로 127","detail":"인스파이어 엔터테인먼트 리조트","region1":"인천광역시","region2":"중구","lat":37.4655300794822,"lng":126.389117686755},{"id":395,"name":"토스","address":"서울 강남구 테헤란로 142","detail":"4층","region1":"서울특별시","region2":"강남구","lat":37.4997440471512,"lng":127.034954751198},{"id":396,"name":"예다함","address":"","detail":"","region1":"","region2":"","lat":null,"lng":null},{"id":397,"name":"(주)카길애그리퓨리나","address":"경기 성남시 분당구 돌마로 42","detail":"5층","region1":"경기도","region2":"성남시 분당구","lat":37.3497083093024,"lng":127.106628173921},{"id":398,"name":"에스에이엠티","address":"서울 강남구 영동대로 315","detail":"","region1":"서울특별시","region2":"강남구","lat":37.502495138588,"lng":127.066034092543},{"id":399,"name":"위메이드","address":"","detail":"","region1":"","region2":"","lat":null,"lng":null},{"id":400,"name":"서울대학교","address":"","detail":"","region1":"","region2":"","lat":37.5881526015598,"lng":126.99606437342},{"id":401,"name":"서울대학교(링크)","address":"","detail":"","region1":"","region2":"","lat":null,"lng":null},{"id":402,"name":"세븐일레븐","address":"","detail":"","region1":"","region2":"","lat":null,"lng":null},{"id":403,"name":"삼성생명서비스","address":"","detail":"","region1":"","region2":"","lat":null,"lng":null},{"id":404,"name":"세스코","address":"서울 강동구 상일로10길 46","detail":"세스코 터치센터","region1":"서울특별시","region2":"강동구","lat":37.5503602953027,"lng":127.17414435086},{"id":405,"name":"중랑구청","address":"","detail":"","region1":"","region2":"","lat":null,"lng":null},{"id":406,"name":"DHL","address":"","detail":"","region1":"","region2":"","lat":null,"lng":null},{"id":407,"name":"우리금융경영연구소","address":"서울 중구 소공로 48","detail":"7층(회현동2가, 우리금융디지털타워)","region1":"서울특별시","region2":"중구","lat":37.5598230959569,"lng":126.983074047671},{"id":408,"name":"삼지전자","address":"경기 화성시 동탄구 금곡로 63-27","detail":"삼지전자","region1":"경기도","region2":"화성시 동탄구","lat":37.1666331082607,"lng":127.076975524931},{"id":409,"name":"대원제약","address":"서울 성동구 천호대로 386","detail":"대원제약","region1":"서울특별시","region2":"성동구","lat":37.5615323148701,"lng":127.061738255232},{"id":410,"name":"AP시스템","address":"경기 화성시 동탄산단8길 15-5","detail":"AP시스템","region1":"경기도","region2":"화성시","lat":37.1731564358597,"lng":127.088167551089},{"id":411,"name":"동탄시티병원","address":"","detail":"","region1":"","region2":"","lat":null,"lng":null},{"id":412,"name":"구다이글로벌","address":"","detail":"","region1":"","region2":"","lat":null,"lng":null},{"id":413,"name":"한국신용데이터","address":"","detail":"","region1":"","region2":"","lat":null,"lng":null},{"id":414,"name":"한화솔루션","address":"","detail":"","region1":"","region2":"","lat":null,"lng":null},{"id":415,"name":"한국수출입은행","address":"서울 영등포구 은행로 38","detail":"","region1":"서울특별시","region2":"영등포구","lat":37.5286372332436,"lng":126.923399003703},{"id":416,"name":"메디톡스","address":"","detail":"","region1":"","region2":"","lat":null,"lng":null},{"id":417,"name":"세일이엔에스","address":"서울 강남구 영동대로112길 66","detail":"5층","region1":"서울특별시","region2":"강남구","lat":37.5158049295815,"lng":127.065762582251},{"id":418,"name":"LF푸드","address":"서울 강남구 언주로172길 7","detail":"6층","region1":"서울특별시","region2":"강남구","lat":37.5279256918772,"lng":127.034503264993},{"id":419,"name":"한국시세이도","address":"서울 강남구 대치동 1003","detail":"한국시세이도","region1":"서울특별시","region2":"강남구","lat":37.5068527291058,"lng":127.066250897864},{"id":420,"name":"원익홀딩스","address":"","detail":"","region1":"","region2":"","lat":null,"lng":null},{"id":421,"name":"롯데바이오로직스","address":"서울 송파구 올림픽로 300","detail":"30층","region1":"서울특별시","region2":"송파구","lat":37.5137129859207,"lng":127.104301829165},{"id":422,"name":"롯데벤처스","address":"서울 강남구 테헤란로69길 5","detail":"14층","region1":"서울특별시","region2":"강남구","lat":37.5061948324582,"lng":127.052402933477},{"id":423,"name":"호텔롯데","address":"서울 중구 을지로 30","detail":"","region1":"서울특별시","region2":"중구","lat":37.5653458904198,"lng":126.9810075639},{"id":424,"name":"아성다이소","address":"서울 강남구 남부순환로 2748","detail":"","region1":"서울특별시","region2":"강남구","lat":37.4866152698895,"lng":127.047198914992},{"id":425,"name":"AD 데모 고객사","address":"","detail":"","region1":"","region2":"","lat":null,"lng":null},{"id":426,"name":"삼성화재 암뇌심 케어플러스","address":"","detail":"","region1":"","region2":"","lat":null,"lng":null},{"id":427,"name":"에드워드라이프사이언시스코리아","address":"서울 강남구 테헤란로87길 36","detail":"13층","region1":"서울특별시","region2":"강남구","lat":37.5102336492314,"lng":127.058597240146},{"id":428,"name":"CJ대한통운","address":"","detail":"","region1":"","region2":"","lat":null,"lng":null},{"id":429,"name":"포니링크","address":"","detail":"","region1":"","region2":"","lat":null,"lng":null},{"id":430,"name":"에이블현대호텔앤리조트","address":"서울 중구 장충단로 60","detail":"에이블현대호텔앤리조트","region1":"서울특별시","region2":"중구","lat":37.5500710078051,"lng":127.000497474349},{"id":431,"name":"신한라이프 나라사랑카드","address":"","detail":"","region1":"","region2":"","lat":null,"lng":null},{"id":432,"name":"한국지엠","address":"인천 부평구 부평대로 233","detail":"","region1":"인천광역시","region2":"부평구","lat":37.5123327099741,"lng":126.716221376653},{"id":433,"name":"유한클로락스","address":"서울 마포구 도화동 25-13","detail":"효성해링턴스퀘어 A동 7층","region1":"서울특별시","region2":"마포구","lat":37.5430172635213,"lng":126.951170977105},{"id":434,"name":"삼성카드고객서비스","address":"","detail":"","region1":"","region2":"","lat":null,"lng":null},{"id":435,"name":"광진구시설관리공단","address":"서울 광진구 능동로 76","detail":"","region1":"서울특별시","region2":"광진구","lat":37.5375706269359,"lng":127.070576040786},{"id":436,"name":"알스퀘어","address":"서울 서초구 서초동 1577-4","detail":"알스퀘어","region1":"서울특별시","region2":"서초구","lat":37.4894574580255,"lng":127.013915983411},{"id":437,"name":"파라다이스 본사","address":"서울 중구 퇴계로 299","detail":"","region1":"서울특별시","region2":"중구","lat":37.5641322423883,"lng":127.004665094613},{"id":438,"name":"파라다이스 시티","address":"서울 중구 퇴계로 299","detail":"","region1":"서울특별시","region2":"중구","lat":37.5641322423883,"lng":127.004665094613},{"id":439,"name":"한국신용정보원","address":"서울 중구 명동11길 19","detail":"13층","region1":"서울특별시","region2":"중구","lat":37.5650216235093,"lng":126.985460003108},{"id":440,"name":"머니투데이","address":"서울 종로구 청계천로 11","detail":"머니투데이","region1":"서울특별시","region2":"종로구","lat":37.5694838005339,"lng":126.978867927837},{"id":441,"name":"아스트라제네카","address":"","detail":"","region1":"","region2":"","lat":null,"lng":null},{"id":442,"name":"파라다이스 워커힐","address":"서울 중구 퇴계로 299","detail":"","region1":"서울특별시","region2":"중구","lat":37.5641322423883,"lng":127.004665094613},{"id":443,"name":"뉴스1","address":"서울 종로구 종로 47","detail":"","region1":"서울특별시","region2":"종로구","lat":37.5711250081852,"lng":126.982438945074},{"id":444,"name":"머니투데이방송","address":"서울 영등포구 여의나루로 60","detail":"4층","region1":"서울특별시","region2":"영등포구","lat":37.5223003029771,"lng":126.926225192863},{"id":445,"name":"한국화학연구원","address":"대전 유성구 가정로 141","detail":"한국화학연구원","region1":"대전광역시","region2":"유성구","lat":36.3883597034198,"lng":127.355200862006},{"id":446,"name":"SK인텔릭스서비스","address":"서울 금천구 가산동 371-28","detail":"우림라이온스밸리 A동 405호","region1":"서울특별시","region2":"금천구","lat":37.479970085901,"lng":126.882507193785},{"id":447,"name":"페이민트","address":"","detail":"","region1":"","region2":"","lat":null,"lng":null},{"id":448,"name":"한솔섬유","address":"","detail":"","region1":"","region2":"","lat":null,"lng":null},{"id":449,"name":"프리즘필터뮤직그룹","address":"","detail":"","region1":"","region2":"","lat":null,"lng":null},{"id":450,"name":"코엑스","address":"서울 강남구 영동대로 513","detail":"코엑스","region1":"서울특별시","region2":"강남구","lat":37.5118239121138,"lng":127.059159043842},{"id":451,"name":"한국공항보안","address":"서울 강서구 하늘길 38","detail":"김포국제공항 국제선청사 2층 222,223-2~4호","region1":"서울특별시","region2":"강서구","lat":37.5713695798026,"lng":126.802960133589},{"id":452,"name":"근로복지공단","address":"울산 중구 종가로 340","detail":"","region1":"울산광역시","region2":"중구","lat":35.5639708459598,"lng":129.314256615656},{"id":453,"name":"투믹스","address":"","detail":"","region1":"","region2":"","lat":null,"lng":null},{"id":454,"name":"IBK투자증권","address":"","detail":"","region1":"","region2":"","lat":null,"lng":null},{"id":455,"name":"빌라모자이크","address":"서울 강남구 청담동 85-4","detail":"빌라모자이크","region1":"서울특별시","region2":"강남구","lat":37.5246851864391,"lng":127.040087637849},{"id":456,"name":"프라다코리아","address":"","detail":"","region1":"","region2":"","lat":null,"lng":null},{"id":457,"name":"대우에스티","address":"","detail":"","region1":"","region2":"","lat":null,"lng":null},{"id":458,"name":"엔지코릭스","address":"","detail":"","region1":"","region2":"","lat":null,"lng":null},{"id":459,"name":"금호석유화학","address":"","detail":"","region1":"","region2":"","lat":null,"lng":null},{"id":460,"name":"중앙농협","address":"","detail":"","region1":"","region2":"","lat":null,"lng":null},{"id":461,"name":"에스케이일렉링크","address":"","detail":"","region1":"","region2":"","lat":null,"lng":null},{"id":462,"name":"바이오노트","address":"경기 화성시 동탄구 삼성1로4길 22","detail":"","region1":"경기도","region2":"화성시 동탄구","lat":37.2232501984573,"lng":127.072406361931},{"id":463,"name":"파트너 전용 서비스","address":"","detail":"","region1":"","region2":"","lat":null,"lng":null},{"id":464,"name":"MG데이터시스템","address":"","detail":"","region1":"","region2":"","lat":null,"lng":null},{"id":465,"name":"국립생태원","address":"","detail":"","region1":"","region2":"","lat":null,"lng":null},{"id":466,"name":"나노에이치투오","address":"","detail":"","region1":"","region2":"","lat":null,"lng":null},{"id":467,"name":"메가존클라우드","address":"경기 과천시 과천대로7길 74","detail":"메가존클라우드","region1":"경기도","region2":"과천시","lat":37.4175036383476,"lng":126.977427580979},{"id":468,"name":"삼일제약","address":"","detail":"","region1":"","region2":"","lat":null,"lng":null},{"id":469,"name":"주택도시보증공사(HUG)","address":"","detail":"","region1":"","region2":"","lat":null,"lng":null},{"id":470,"name":"더헬스 삼성생명","address":"","detail":"","region1":"","region2":"","lat":null,"lng":null},{"id":471,"name":"GC케어_개인회원","address":"서울 영등포구 여의대로 108","detail":"타워2 32F","region1":"서울특별시","region2":"영등포구","lat":37.5251913154781,"lng":126.929112756574}]